{
  "a" : [
    {
      "id": "1",
      "name":"Armellini",
      "lat":-33.386941417345604,
      "lon":-60.1757641775202,
      "address":"Av. Central Malvinas Argentinas 3105"
    },
    {
      "id": "2",
      "name":"Cabrera",
      "lat":-33.33655176747358,
      "lon":-60.21076250473463,
      "address":"Av. Falcón 222"
    },
    {
      "id": "3",
      "name":"Diamante",
      "lat":-33.34041056512958,
      "lon":-60.230896722537636,
      "address":"Belgrano y Albarez"
    },
    {
      "id": "4",
      "name":"Furlan",
      "lat":-33.32788406441988,
      "lon":-60.224821148912916,
      "address":"9 de Julio 260"
    },
    {
      "id": "5",
      "name":"Gonzalez Pacin",
      "lat":-33.33341236133698,
      "lon":-60.21976489309024,
      "address":"Nacion 314"
    },
    {
      "id": "6",
      "name":"Hector Lopez",
      "lat":-33.34691310054558,
      "lon":-60.201602491240784,
      "address":"Maipú 794"
    }
  ],
  "b": [
    {
      "id": "1",
      "name":"Carrera",
      "lat":-33.33527550138496,
      "lon":-60.21376893357031,
      "address":"Almafuerte y España"
    },
    {
      "id": "2",
      "name":"Coccaro",
      "lat":-33.34474852087967,
      "lon":-60.19377664891196,
      "address":"Rivadavia 987 Bis"
    },
    {
      "id": "3",
      "name":"Del Pueblo",
      "lat":-33.33596684872637,
      "lon":-60.222195275899224,
      "address":"Nacion 450"
    },
    {
      "id": "4",
      "name":"Dotto",
      "lat":-33.34457735789202,
      "lon":-60.21517806240539,
      "address":"Pringles y Alvear"
    },
    {
      "id": "5",
      "name":"Melone",
      "lat":-33.34419558241745,
      "lon":-60.2302618624053,
      "address":"Pte. Perón 858"
    },
    {
      "id": "6",
      "name":"Taljame",
      "lat":-33.32988423370772,
      "lon":-60.226030860557444,
      "address":"Av. Alberdi 346"
    }
  ],
  "c": [
    {
      "id": "1",
      "name":"Amefarma",
      "lat":-33.33026605518724,
      "lon":-60.21862980473507,
      "address":"Mitre 200"
    },
    {
      "id": "2",
      "name":"Garetto",
      "lat":-33.34521879728404,
      "lon":-60.22341908939211,
      "address":"Av Morteo y España"
    },
    {
      "id": "3",
      "name":"Liliana Latorre",
      "lat":-33.336248827222235,
      "lon":-60.21697028440585,
      "address":"Ameghino 347"
    },
    {
      "id": "4",
      "name":"Ponce",
      "lat":-33.368253649871356,
      "lon":-60.19906733356849,
      "address":"Juramento 1445"
    },
    {
      "id": "5",
      "name":"Rasetto",
      "lat":-33.326447425222845,
      "lon":-60.233922104735235,
      "address":"Av. Viale 401"
    },
    {
      "id": "6",
      "name":"San Nicolas",
      "lat":-33.34476855830512,
      "lon":-60.2054229470632,
      "address":"Cochabamba 357"
    }
  ],
  "d": [
    {
      "id": "1",
      "name": "Boffa",
      "lat": "",
      "lon": "",
      "address": "Av. Savio 1142"
    },
    {
      "id": "2",
      "name": "Cej",
      "lat": "",
      "lon": "",
      "address": "Maipú 495"
    },
    {
      "id": "3",
      "name": "De Los Arroyos",
      "lat": "",
      "lon": "",
      "address": "Nación 102"
    },
    {
      "id": "4",
      "name": "Lombardi",
      "lat": "",
      "lon": "",
      "address": "Av. Alberdi 548"
    },
    {
      "id": "5",
      "name": "Porta",
      "lat": "",
      "lon": "",
      "address": "Av. Savio 147"
    },
    {
      "id": "6",
      "name": "Romero",
      "lat": "",
      "lon": "",
      "address": "Pte. Perón 1648"
    }
  ],
  "e": [
    {
      "id": "1",
      "name": "Almada",
      "lat": "",
      "lon": "",
      "address": "Maipú y J. B. Justo"
    },
    {
      "id": "2",
      "name": "Catalan",
      "lat": "",
      "lon": "",
      "address": "Almafuerte 442"
    },
    {
      "id": "3",
      "name": "De La Torre",
      "lat": "",
      "lon": "",
      "address": "Av. Arturo Illia 643"
    },
    {
      "id": "4",
      "name": "Girardi",
      "lat": "",
      "lon": "",
      "address": "Av. Savio 1634"
    },
    {
      "id": "5",
      "name": "Henrich",
      "lat": "",
      "lon": "",
      "address": "9 de Julio 63"
    },
    {
      "id": "6",
      "name": "Tonon",
      "lat": "",
      "lon": "",
      "address": "Garibaldi 692"
    } 
  ],
  
  
}