{
  "2024": [
    {
      "8": [
        {
          "dia": 1,
          "letra": "e",
          "mes": "Septiembre",
          "farmacias": [
            {
              "id": "1",
              "name": "Almada",
              "lat": -33.33809357048762,
              "lon": -60.21483873357023,
              "address": "Maipú y J. B. Justo"
            },
            {
              "id": "2",
              "name": "Catalan",
              "lat": -33.339203656719455,
              "lon": -60.208158791241075,
              "address": "Almafuerte 442"
            },
            {
              "id": "3",
              "name": "De La Torre",
              "lat": -33.31731156811025,
              "lon": -60.23116020473564,
              "address": "Av. Arturo Illia 643"
            },
            {
              "id": "4",
              "name": "Girardi",
              "lat": -33.36033017498645,
              "lon": -60.18731794706247,
              "address": "Av. Savio 1634"
            },
            {
              "id": "5",
              "name": "Henrich",
              "lat": -33.33104064879514,
              "lon": -60.21998907589947,
              "address": "9 de Julio 63"
            },
            {
              "id": "6",
              "name": "Tonon",
              "lat": -33.34247267904897,
              "lon": -60.22468084891203,
              "address": "Garibaldi 692"
            }
          ]
        },
        {
          "dia": 2,
          "letra": "f",
          "mes": "Septiembre",
          "farmacias":[
            {
              "id": "1",
              "name": "Cantondebat",
              "lat": -33.35055010878087,
              "lon": -60.213401135418216,
              "address": "Brown 598"
            },
            {
              "id": "2",
              "name": "Cavara",
              "lat": -33.33570727517761,
              "lon": -60.20832214521492,
              "address": "Italia Y Necochea"
            },
            {
              "id": "3",
              "name": "Fenix",
              "lat": -33.33426894452214,
              "lon": -60.21697324704747,
              "address": "Garibaldi 281"
            },
            {
              "id": "4",
              "name": "Frattini",
              "lat": -33.33443759070356,
              "lon": -60.22511569124136,
              "address": "Av. Moreno 108"
            },
            {
              "id": "5",
              "name": "Prat",
              "lat": -33.34953240647645,
              "lon": -60.235944977747174,
              "address": "Pte Perón 1093"
            },
            {
              "id": "6",
              "name": "Zonta",
              "lat": -33.324212854979265,
              "lon": -60.22765330658413,
              "address": "Urquiza 422"
            }
          ]
        },
        {
          "dia": 3,
          "letra": "g",
          "mes": "Septiembre",
          "farmacias":[]
        },
        {
          "dia": 4,
          "letra": "h",
          "mes": "Septiembre",
          "farmacias":[
            {
              "id": "1",
              "name": "Blanco",
              "lat": -33.34148881416284,
              "lon": -60.20426796240662,
              "address": "Benítez 235",
              "tel":"03364420843"
            },
            {
              "id": "2",
              "name": "Correa",
              "lat": -33.330612040316296,
              "lon": -60.2158215335718,
              "address": "Italia 38",
              "tel":"03364428203"
            },
            {
              "id": "3",
              "name": "Donatelli",
              "lat": -33.322809245979805,
              "lon": -60.22935914891361,
              "address": "Urquiza 499",
              "tel":"0346115430017"
            },
            {
              "id": "4",
              "name": "Gagliardo",
              "lat": -33.347558810802354,
              "lon": -60.23382082534601,
              "address": "Pte Perón 1035",
              "tel":""
            },
            {
              "id": "5",
              "name": "Salvador",
              "lat": -33.33251775697814,
              "lon": -60.22769900473631,
              "address": "Av. Moreno 220",
              "tel":"03364435180"
            },
            {
              "id": "6",
              "name": "Tioni",
              "lat": -33.35676244560224,
              "lon": -60.19771082007639,
              "address": "Rademil y Alvear",
              "tel":"03364434809"
            },
            {
              "id": "7",
              "name": "Farias",
              "lat": -33.339563741870556,
              "lon": -60.217026247065185,
              "address": "Av. Savio 238",
              "tel": "03364437501"
            }
          ]
        },
        {
          "dia": 5,
          "letra": "i",
          "mes": "Septiembre",
          "farmacias":[{
            "id": "1",
            "name": "Alonso",
            "lat": -33.33594800276067,
            "lon": -60.22021219124219,
            "address": "Don Bosco y Pellegrini",
            "tel":"03364437687"
          },
          {
            "id": "2",
            "name": "Ciminari",
            "lat": -33.336648186952836,
            "lon": -60.23329622007746,
            "address": "Av. Alberdi 699",
            "tel":""
          },
          {
            "id": "3",
            "name": "Garcia",
            "lat": -33.3291283676118,
            "lon": -60.21951941823045,
            "address": "Belgrano 184",
            "tel":"03364422324"
          },
          {
            "id": "4",
            "name": "Gomez",
            "lat": -33.35361026252686,
            "lon": -60.241862447064385,
            "address": "Pte. Perón 1366",
            "tel":"03364440633"
          },
          {
            "id": "5",
            "name": "Leone",
            "lat": -33.34974216904613,
            "lon": -60.19571403357069,
            "address": "Bolívar 1053",
            "tel":"03364431766"
          },
          {
            "id": "6",
            "name": "Pza. Sarmiento",
            "lat": -33.33237693152177,
            "lon": -60.21106883357172,
            "address": "España y Rivadavia",
            "tel":""
          }]
        },
        {
          "dia": 6,
          "letra": "j",
          "mes": "Septiembre",
          "farmacias":[{
            "id": "1",
            "name": "Alluchon",
            "lat": -33.3339826261711,
            "lon": -60.22272904706558,
            "address": "Olleros 55",
            "tel":"03364430164"
          },
          {
            "id": "2",
            "name": "Bongiorno",
            "lat": -33.3261824245605,
            "lon": -60.222277218230644,
            "address": "Francia y Av. Alberdi",
            "tel":"03364424936"
          },
          {
            "id": "3",
            "name": "Bracco",
            "lat": -33.34215748977071,
            "lon": -60.21384954706507,
            "address": "Av. Savio 373",
            "tel":"03364424389"
          },
          {
            "id": "4",
            "name": "Floreani",
            "lat": -33.329698921086745,
            "lon": -60.2124703423293,
            "address": "Garibaldi y Alem",
            "tel":""
          },
          {
            "id": "5",
            "name": "Pinasco",
            "lat": -33.33961558401627,
            "lon": -60.22223777590062,
            "address": "Alvear 95",
            "tel": "03364421261"
          },
          {
            "id": "6",
            "name": "Prado",
            "lat": -33.34342090058382,
            "lon": -60.19594055582323,
            "address": "M. Cernadas 110",
            "tel":"03364439209"
          }]
        },
        {
          "dia": 7,
          "letra": "k",
          "mes": "Septiembre",
          "farmacias":[]
        },
        {
          "dia": 8,
          "letra": "l",
          "mes": "Septiembre",
          "farmacias":[]
        }
      ]
    }
  ]
}